timestamp,mission_time_s,status,altitude_m,velocity_ms,latitude,longitude,pitch_deg,yaw_deg,roll_deg,chamber_pressure_psi,battery_pct
2026-04-25T12:00:00.000Z,0.0,PRE_LAUNCH,0.0,0.0,-39.2628,177.8645,90.0,0.0,0.0,0.0,100.0
2026-04-25T12:00:00.100Z,0.1,PRE_LAUNCH,0.0,0.0,-39.2628,177.8645,90.0,0.0,0.0,0.0,100.0
2026-04-25T12:00:00.200Z,0.2,PRE_LAUNCH,0.0,0.0,-39.2628,177.8645,90.0,0.0,0.0,0.0,99.99
2026-04-25T12:00:00.300Z,0.3,PRE_LAUNCH,0.0,0.0,-39.2628,177.8645,90.0,0.0,0.0,0.0,99.98
2026-04-25T12:00:00.400Z,0.4,PRE_LAUNCH,0.0,0.0,-39.2628,177.8645,90.0,0.0,0.0,0.0,99.98
2026-04-25T12:00:00.500Z,0.5,PRE_LAUNCH,0.0,0.0,-39.2628,177.8645,90.0,0.0,0.0,0.0,99.97
2026-04-25T12:00:00.600Z,0.6,PRE_LAUNCH,0.0,0.0,-39.2628,177.8645,90.0,0.0,0.0,0.0,99.97
2026-04-25T12:00:00.700Z,0.7,PRE_LAUNCH,0.0,0.0,-39.2628,177.8645,90.0,0.0,0.0,0.0,99.97
2026-04-25T12:00:00.800Z,0.8,PRE_LAUNCH,0.0,0.0,-39.2628,177.8645,90.0,0.0,0.0,0.0,99.96
2026-04-25T12:00:00.900Z,0.9,PRE_LAUNCH,0.0,0.0,-39.2628,177.8645,90.0,0.0,0.0,0.0,99.95
2026-04-25T12:00:01.000Z,1.0,PRE_LAUNCH,0.0,0.0,-39.2628,177.8645,90.0,0.0,0.0,0.0,99.95
2026-04-25T12:00:01.100Z,1.1,PRE_LAUNCH,0.0,0.0,-39.2628,177.8645,90.0,0.0,0.0,0.0,99.94
2026-04-25T12:00:01.200Z,1.2,PRE_LAUNCH,0.0,0.0,-39.2628,177.8645,90.0,0.0,0.0,0.0,99.94
2026-04-25T12:00:01.300Z,1.3,PRE_LAUNCH,0.0,0.0,-39.2628,177.8645,90.0,0.0,0.0,0.0,99.94
2026-04-25T12:00:01.400Z,1.4,PRE_LAUNCH,0.0,0.0,-39.2628,177.8645,90.0,0.0,0.0,0.0,99.93
2026-04-25T12:00:01.500Z,1.5,PRE_LAUNCH,0.0,0.0,-39.2628,177.8645,90.0,0.0,0.0,0.0,99.92
2026-04-25T12:00:01.600Z,1.6,PRE_LAUNCH,0.0,0.0,-39.2628,177.8645,90.0,0.0,0.0,0.0,99.92
2026-04-25T12:00:01.700Z,1.7,PRE_LAUNCH,0.0,0.0,-39.2628,177.8645,90.0,0.0,0.0,0.0,99.92
2026-04-25T12:00:01.800Z,1.8,PRE_LAUNCH,0.0,0.0,-39.2628,177.8645,90.0,0.0,0.0,0.0,99.91
2026-04-25T12:00:01.900Z,1.9,PRE_LAUNCH,0.0,0.0,-39.2628,177.8645,90.0,0.0,0.0,0.0,99.91
2026-04-25T12:00:02.000Z,2.0,PRE_LAUNCH,0.0,0.0,-39.2628,177.8645,90.0,0.0,0.0,450.6,99.9
2026-04-25T12:00:02.100Z,2.1,PRE_LAUNCH,0.0,0.0,-39.2628,177.8645,90.0,0.0,0.0,450.96,99.89
2026-04-25T12:00:02.200Z,2.2,PRE_LAUNCH,0.0,0.0,-39.2628,177.8645,90.0,0.0,0.0,448.79,99.89
2026-04-25T12:00:02.300Z,2.3,PRE_LAUNCH,0.0,0.0,-39.2628,177.8645,90.0,0.0,0.0,448.27,99.89
2026-04-25T12:00:02.400Z,2.4,PRE_LAUNCH,0.0,0.0,-39.2628,177.8645,90.0,0.0,0.0,449.33,99.88
2026-04-25T12:00:02.500Z,2.5,PRE_LAUNCH,0.0,0.0,-39.2628,177.8645,90.0,0.0,0.0,451.38,99.88
2026-04-25T12:00:02.600Z,2.6,PRE_LAUNCH,0.0,0.0,-39.2628,177.8645,90.0,0.0,0.0,451.61,99.87
2026-04-25T12:00:02.700Z,2.7,PRE_LAUNCH,0.0,0.0,-39.2628,177.8645,90.0,0.0,0.0,448.69,99.86
2026-04-25T12:00:02.800Z,2.8,PRE_LAUNCH,0.0,0.0,-39.2628,177.8645,90.0,0.0,0.0,450.34,99.86
2026-04-25T12:00:02.900Z,2.9,PRE_LAUNCH,0.0,0.0,-39.2628,177.8645,90.0,0.0,0.0,448.69,99.86
2026-04-25T12:00:03.000Z,3.0,PRE_LAUNCH,0.0,0.0,-39.2628,177.8645,90.0,0.0,0.0,451.84,99.85
2026-04-25T12:00:03.100Z,3.1,PRE_LAUNCH,0.0,0.0,-39.2628,177.8645,90.0,0.0,0.0,450.22,99.84
2026-04-25T12:00:03.200Z,3.2,PRE_LAUNCH,0.0,0.0,-39.2628,177.8645,90.0,0.0,0.0,451.03,99.84
2026-04-25T12:00:03.300Z,3.3,PRE_LAUNCH,0.0,0.0,-39.2628,177.8645,90.0,0.0,0.0,449.12,99.83
2026-04-25T12:00:03.400Z,3.4,PRE_LAUNCH,0.0,0.0,-39.2628,177.8645,90.0,0.0,0.0,449.1,99.83
2026-04-25T12:00:03.500Z,3.5,PRE_LAUNCH,0.0,0.0,-39.2628,177.8645,90.0,0.0,0.0,451.69,99.83
2026-04-25T12:00:03.600Z,3.6,PRE_LAUNCH,0.0,0.0,-39.2628,177.8645,90.0,0.0,0.0,449.67,99.82
2026-04-25T12:00:03.700Z,3.7,PRE_LAUNCH,0.0,0.0,-39.2628,177.8645,90.0,0.0,0.0,451.71,99.81
2026-04-25T12:00:03.800Z,3.8,PRE_LAUNCH,0.0,0.0,-39.2628,177.8645,90.0,0.0,0.0,448.44,99.81
2026-04-25T12:00:03.900Z,3.9,PRE_LAUNCH,0.0,0.0,-39.2628,177.8645,90.0,0.0,0.0,449.25,99.81
2026-04-25T12:00:04.000Z,4.0,PRE_LAUNCH,0.0,0.0,-39.2628,177.8645,90.0,0.0,0.0,450.23,99.8
2026-04-25T12:00:04.100Z,4.1,PRE_LAUNCH,0.0,0.0,-39.2628,177.8645,90.0,0.0,0.0,449.06,99.8
2026-04-25T12:00:04.200Z,4.2,PRE_LAUNCH,0.0,0.0,-39.2628,177.8645,90.0,0.0,0.0,450.31,99.79
2026-04-25T12:00:04.300Z,4.3,PRE_LAUNCH,0.0,0.0,-39.2628,177.8645,90.0,0.0,0.0,451.05,99.78
2026-04-25T12:00:04.400Z,4.4,PRE_LAUNCH,0.0,0.0,-39.2628,177.8645,90.0,0.0,0.0,451.26,99.78
2026-04-25T12:00:04.500Z,4.5,PRE_LAUNCH,0.0,0.0,-39.2628,177.8645,90.0,0.0,0.0,450.48,99.78
2026-04-25T12:00:04.600Z,4.6,PRE_LAUNCH,0.0,0.0,-39.2628,177.8645,90.0,0.0,0.0,449.99,99.77
2026-04-25T12:00:04.700Z,4.7,PRE_LAUNCH,0.0,0.0,-39.2628,177.8645,90.0,0.0,0.0,449.07,99.77
2026-04-25T12:00:04.800Z,4.8,PRE_LAUNCH,0.0,0.0,-39.2628,177.8645,90.0,0.0,0.0,450.1,99.76
2026-04-25T12:00:04.900Z,4.9,PRE_LAUNCH,0.0,0.0,-39.2628,177.8645,90.0,0.0,0.0,448.43,99.75
2026-04-25T12:00:05.000Z,5.0,ASCENT,0.12,1.23,-39.2628,177.8645,90.0,0.007,0.0,454.37,99.75
2026-04-25T12:00:05.100Z,5.1,ASCENT,0.37,2.45,-39.2628,177.8645,90.0,-0.014,0.9,450.39,99.75
2026-04-25T12:00:05.200Z,5.2,ASCENT,0.74,3.68,-39.2628,177.8645,90.0,0.019,1.8,452.38,99.74
2026-04-25T12:00:05.300Z,5.3,ASCENT,1.23,4.91,-39.2628,177.8645,90.0,0.022,2.7,457.44,99.73
2026-04-25T12:00:05.400Z,5.4,ASCENT,1.84,6.13,-39.2628,177.8645,90.0,-0.033,3.6,450.04,99.73
2026-04-25T12:00:05.500Z,5.5,ASCENT,2.58,7.36,-39.2628,177.8645,90.0,-0.026,4.5,454.41,99.72
2026-04-25T12:00:05.600Z,5.6,ASCENT,3.44,8.6,-39.2628,177.8645,90.0,0.039,5.4,459.1,99.72
2026-04-25T12:00:05.700Z,5.7,ASCENT,4.42,9.83,-39.2628,177.8645,90.0,0.002,6.3,453.94,99.72
2026-04-25T12:00:05.800Z,5.8,ASCENT,5.52,11.06,-39.2628,177.8645,90.0,0.019,7.2,451.4,99.71
2026-04-25T12:00:05.900Z,5.9,ASCENT,6.75,12.29,-39.2628,177.8645,90.0,-0.005,8.1,456.47,99.7
2026-04-25T12:00:06.000Z,6.0,ASCENT,8.11,13.53,-39.2628,177.8645,90.0,-0.001,9.0,456.7,99.7
2026-04-25T12:00:06.100Z,6.1,ASCENT,9.58,14.76,-39.2628,177.8645,90.0,0.032,9.9,454.17,99.69
2026-04-25T12:00:06.200Z,6.2,ASCENT,11.18,16.0,-39.2628,177.8645,90.0,0.033,10.8,456.51,99.69
2026-04-25T12:00:06.300Z,6.3,ASCENT,12.91,17.24,-39.2628,177.8645,90.0,0.043,11.7,458.18,99.69
2026-04-25T12:00:06.400Z,6.4,ASCENT,14.75,18.48,-39.2628,177.8645,90.0,0.028,12.6,450.19,99.68
2026-04-25T12:00:06.500Z,6.5,ASCENT,16.73,19.72,-39.2628,177.8645,90.0,0.046,13.5,450.56,99.67
2026-04-25T12:00:06.600Z,6.6,ASCENT,18.82,20.96,-39.2628,177.8645,90.0,0.03,14.4,450.23,99.67
2026-04-25T12:00:06.700Z,6.7,ASCENT,21.04,22.2,-39.2628,177.8645,90.0,-0.003,15.3,452.37,99.67
2026-04-25T12:00:06.800Z,6.8,ASCENT,23.39,23.44,-39.2628,177.8645,90.0,-0.016,16.2,450.1,99.66
2026-04-25T12:00:06.900Z,6.9,ASCENT,25.86,24.69,-39.2628,177.8645,90.0,-0.035,17.1,452.61,99.66
2026-04-25T12:00:07.000Z,7.0,ASCENT,28.45,25.93,-39.2628,177.8645,90.0,0.02,18.0,455.98,99.65
2026-04-25T12:00:07.100Z,7.1,ASCENT,31.17,27.18,-39.2628,177.8645,90.0,-0.042,18.9,455.41,99.64
2026-04-25T12:00:07.200Z,7.2,ASCENT,34.01,28.42,-39.2628,177.8645,90.0,-0.032,19.8,455.3,99.64
2026-04-25T12:00:07.300Z,7.3,ASCENT,36.98,29.67,-39.2628,177.8645,90.0,-0.004,20.7,450.6,99.64
2026-04-25T12:00:07.400Z,7.4,ASCENT,40.07,30.92,-39.2628,177.8645,90.0,0.003,21.6,452.81,99.63
2026-04-25T12:00:07.500Z,7.5,ASCENT,43.28,32.17,-39.2628,177.8645,90.0,0.002,22.5,454.8,99.62
2026-04-25T12:00:07.600Z,7.6,ASCENT,46.63,33.42,-39.2628,177.8645,90.0,0.037,23.4,454.45,99.62
2026-04-25T12:00:07.700Z,7.7,ASCENT,50.09,34.67,-39.2628,177.8645,90.0,0.047,24.3,458.5,99.61
2026-04-25T12:00:07.800Z,7.8,ASCENT,53.69,35.92,-39.2628,177.8645,90.0,0.012,25.2,457.39,99.61
2026-04-25T12:00:07.900Z,7.9,ASCENT,57.4,37.18,-39.2628,177.8645,90.0,-0.017,26.1,459.82,99.61
2026-04-25T12:00:08.000Z,8.0,ASCENT,61.25,38.43,-39.2628,177.8645,90.0,0.042,27.0,459.34,99.6
2026-04-25T12:00:08.100Z,8.1,ASCENT,65.21,39.69,-39.2628,177.8645,90.0,-0.046,27.9,454.8,99.59
2026-04-25T12:00:08.200Z,8.2,ASCENT,69.31,40.94,-39.2628,177.8645,90.0,-0.039,28.8,456.34,99.59
2026-04-25T12:00:08.300Z,8.3,ASCENT,73.53,42.2,-39.2628,177.8645,90.0,0.031,29.7,457.73,99.58
2026-04-25T12:00:08.400Z,8.4,ASCENT,77.87,43.46,-39.2628,177.8645,90.0,0.008,30.6,456.06,99.58
2026-04-25T12:00:08.500Z,8.5,ASCENT,82.35,44.72,-39.2628,177.8645,90.0,-0.002,31.5,455.24,99.58
2026-04-25T12:00:08.600Z,8.6,ASCENT,86.94,45.98,-39.2628,177.8645,90.0,-0.046,32.4,459.58,99.57
2026-04-25T12:00:08.700Z,8.7,ASCENT,91.67,47.24,-39.2628,177.8645,90.0,0.018,33.3,456.25,99.56
2026-04-25T12:00:08.800Z,8.8,ASCENT,96.52,48.5,-39.2628,177.8645,90.0,0.039,34.2,456.6,99.56
2026-04-25T12:00:08.900Z,8.9,ASCENT,101.49,49.76,-39.2628,177.8645,90.0,-0.019,35.1,455.48,99.56
2026-04-25T12:00:09.000Z,9.0,ASCENT,106.6,51.03,-39.2628,177.8645,90.0,0.018,36.0,459.85,99.55
2026-04-25T12:00:09.100Z,9.1,ASCENT,111.83,52.29,-39.2628,177.8645,90.0,0.008,36.9,454.77,99.55
2026-04-25T12:00:09.200Z,9.2,ASCENT,117.18,53.56,-39.2628,177.8645,90.0,0.004,37.8,454.01,99.54
2026-04-25T12:00:09.300Z,9.3,ASCENT,122.67,54.83,-39.2628,177.8645,90.0,-0.008,38.7,453.38,99.53
2026-04-25T12:00:09.400Z,9.4,ASCENT,128.28,56.1,-39.2628,177.8645,90.0,0.032,39.6,458.7,99.53
2026-04-25T12:00:09.500Z,9.5,ASCENT,134.01,57.36,-39.2628,177.8645,90.0,0.0,40.5,459.6,99.53
2026-04-25T12:00:09.600Z,9.6,ASCENT,139.88,58.63,-39.2628,177.8645,90.0,-0.031,41.4,456.92,99.52
2026-04-25T12:00:09.700Z,9.7,ASCENT,145.87,59.91,-39.2628,177.8645,90.0,0.027,42.3,455.31,99.52
2026-04-25T12:00:09.800Z,9.8,ASCENT,151.98,61.18,-39.2628,177.8645,90.0,-0.026,43.2,457.9,99.51
2026-04-25T12:00:09.900Z,9.9,ASCENT,158.23,62.45,-39.2628,177.8645,90.0,0.041,44.1,452.09,99.5
2026-04-25T12:00:10.000Z,10.0,ASCENT,164.6,63.72,-39.2628,177.8645,90.0,-0.013,45.0,457.07,99.5
2026-04-25T12:00:10.100Z,10.1,ASCENT,171.1,65.0,-39.262795,177.864527,89.93,0.018,45.9,457.51,99.5
2026-04-25T12:00:10.200Z,10.2,ASCENT,177.73,66.28,-39.26279,177.864555,89.86,0.028,46.8,456.64,99.49
2026-04-25T12:00:10.300Z,10.3,ASCENT,184.48,67.55,-39.262785,177.864585,89.79,-0.006,47.7,457.6,99.48
2026-04-25T12:00:10.400Z,10.4,ASCENT,191.37,68.83,-39.26278,177.864615,89.72,0.004,48.6,458.79,99.48
2026-04-25T12:00:10.500Z,10.5,ASCENT,198.38,70.11,-39.262775,177.864647,89.65,-0.005,49.5,452.6,99.47
2026-04-25T12:00:10.600Z,10.6,ASCENT,205.52,71.39,-39.262769,177.864679,89.58,-0.034,50.4,458.99,99.47
2026-04-25T12:00:10.700Z,10.7,ASCENT,212.78,72.67,-39.262763,177.864713,89.51,0.049,51.3,456.51,99.47
2026-04-25T12:00:10.800Z,10.8,ASCENT,220.18,73.95,-39.262757,177.864748,89.44,0.044,52.2,457.0,99.46
2026-04-25T12:00:10.900Z,10.9,ASCENT,227.7,75.23,-39.262751,177.864783,89.37,-0.02,53.1,455.83,99.45
2026-04-25T12:00:11.000Z,11.0,ASCENT,235.35,76.52,-39.262745,177.86482,89.3,-0.04,54.0,451.9,99.45
2026-04-25T12:00:11.100Z,11.1,ASCENT,243.13,77.8,-39.262738,177.864858,89.23,-0.025,54.9,456.29,99.44
2026-04-25T12:00:11.200Z,11.2,ASCENT,251.04,79.09,-39.262732,177.864897,89.16,0.046,55.8,452.83,99.44
2026-04-25T12:00:11.300Z,11.3,ASCENT,259.08,80.38,-39.262725,177.864937,89.09,0.049,56.7,454.08,99.44
2026-04-25T12:00:11.400Z,11.4,ASCENT,267.25,81.66,-39.262718,177.864979,89.02,-0.012,57.6,457.38,99.43
2026-04-25T12:00:11.500Z,11.5,ASCENT,275.54,82.95,-39.26271,177.865021,88.95,0.01,58.5,459.16,99.42
2026-04-25T12:00:11.600Z,11.6,ASCENT,283.97,84.24,-39.262703,177.865064,88.88,-0.045,59.4,457.05,99.42
2026-04-25T12:00:11.700Z,11.7,ASCENT,292.52,85.53,-39.262695,177.865109,88.81,-0.021,60.3,458.29,99.42
2026-04-25T12:00:11.800Z,11.8,ASCENT,301.2,86.82,-39.262687,177.865154,88.74,-0.014,61.2,457.53,99.41
2026-04-25T12:00:11.900Z,11.9,ASCENT,310.01,88.12,-39.262679,177.865201,88.67,-0.002,62.1,453.54,99.41
2026-04-25T12:00:12.000Z,12.0,ASCENT,318.95,89.41,-39.262671,177.865249,88.6,0.046,63.0,454.42,99.4
2026-04-25T12:00:12.100Z,12.1,ASCENT,328.03,90.7,-39.262663,177.865297,88.53,0.033,63.9,452.19,99.39
2026-04-25T12:00:12.200Z,12.2,ASCENT,337.23,92.0,-39.262654,177.865347,88.46,0.03,64.8,455.28,99.39
2026-04-25T12:00:12.300Z,12.3,ASCENT,346.55,93.3,-39.262645,177.865398,88.39,-0.035,65.7,459.59,99.39
2026-04-25T12:00:12.400Z,12.4,ASCENT,356.01,94.59,-39.262636,177.86545,88.32,0.003,66.6,456.28,99.38
2026-04-25T12:00:12.500Z,12.5,ASCENT,365.6,95.89,-39.262627,177.865504,88.25,-0.044,67.5,456.9,99.38
2026-04-25T12:00:12.600Z,12.6,ASCENT,375.32,97.19,-39.262618,177.865558,88.18,0.015,68.4,457.11,99.37
2026-04-25T12:00:12.700Z,12.7,ASCENT,385.17,98.49,-39.262608,177.865613,88.11,-0.021,69.3,454.41,99.36
2026-04-25T12:00:12.800Z,12.8,ASCENT,395.15,99.79,-39.262599,177.86567,88.04,-0.02,70.2,457.05,99.36
2026-04-25T12:00:12.900Z,12.9,ASCENT,405.26,101.1,-39.262589,177.865727,87.97,0.037,71.1,459.0,99.36
2026-04-25T12:00:13.000Z,13.0,ASCENT,415.5,102.4,-39.262579,177.865786,87.9,0.03,72.0,456.48,99.35
2026-04-25T12:00:13.100Z,13.1,ASCENT,425.87,103.7,-39.262568,177.865846,87.83,-0.036,72.9,459.86,99.34
2026-04-25T12:00:13.200Z,13.2,ASCENT,436.37,105.01,-39.262558,177.865907,87.76,0.032,73.8,457.1,99.34
2026-04-25T12:00:13.300Z,13.3,ASCENT,447.0,106.32,-39.262547,177.865969,87.69,0.022,74.7,459.65,99.33
2026-04-25T12:00:13.400Z,13.4,ASCENT,457.77,107.62,-39.262536,177.866032,87.62,-0.016,75.6,451.11,99.33
2026-04-25T12:00:13.500Z,13.5,ASCENT,468.66,108.93,-39.262525,177.866096,87.55,0.005,76.5,455.11,99.33
2026-04-25T12:00:13.600Z,13.6,ASCENT,479.68,110.24,-39.262514,177.866161,87.48,0.04,77.4,450.59,99.32
2026-04-25T12:00:13.700Z,13.7,ASCENT,490.84,111.55,-39.262503,177.866228,87.41,0.029,78.3,453.79,99.31
2026-04-25T12:00:13.800Z,13.8,ASCENT,502.13,112.86,-39.262491,177.866295,87.34,0.027,79.2,450.14,99.31
2026-04-25T12:00:13.900Z,13.9,ASCENT,513.54,114.17,-39.262479,177.866364,87.27,0.036,80.1,458.52,99.31
2026-04-25T12:00:14.000Z,14.0,ASCENT,525.09,115.49,-39.262467,177.866434,87.2,-0.039,81.0,456.81,99.3
2026-04-25T12:00:14.100Z,14.1,ASCENT,536.77,116.8,-39.262455,177.866505,87.13,0.016,81.9,458.89,99.3
2026-04-25T12:00:14.200Z,14.2,ASCENT,548.58,118.12,-39.262442,177.866577,87.06,-0.033,82.8,455.59,99.29
2026-04-25T12:00:14.300Z,14.3,ASCENT,560.53,119.43,-39.26243,177.86665,86.99,0.028,83.7,455.58,99.28
2026-04-25T12:00:14.400Z,14.4,ASCENT,572.6,120.75,-39.262417,177.866724,86.92,0.03,84.6,451.36,99.28
2026-04-25T12:00:14.500Z,14.5,ASCENT,584.81,122.07,-39.262404,177.866799,86.85,-0.003,85.5,456.69,99.28
2026-04-25T12:00:14.600Z,14.6,ASCENT,597.15,123.39,-39.262391,177.866876,86.78,0.005,86.4,454.87,99.27
2026-04-25T12:00:14.700Z,14.7,ASCENT,609.62,124.71,-39.262378,177.866954,86.71,0.027,87.3,452.51,99.27
2026-04-25T12:00:14.800Z,14.8,ASCENT,622.22,126.03,-39.262364,177.867032,86.64,0.002,88.2,456.14,99.26
2026-04-25T12:00:14.900Z,14.9,ASCENT,634.96,127.35,-39.26235,177.867112,86.57,-0.02,89.1,453.35,99.25
2026-04-25T12:00:15.000Z,15.0,ASCENT,647.82,128.67,-39.262336,177.867193,86.5,0.048,89.1,453.2,99.25
2026-04-25T12:00:15.100Z,15.1,ASCENT,660.82,130.0,-39.262322,177.867275,86.43,-0.044,89.1,451.05,99.25
2026-04-25T12:00:15.200Z,15.2,ASCENT,673.96,131.32,-39.262308,177.867359,86.36,-0.042,89.1,455.85,99.24
2026-04-25T12:00:15.300Z,15.3,ASCENT,687.22,132.65,-39.262293,177.867443,86.29,0.021,89.1,450.27,99.23
2026-04-25T12:00:15.400Z,15.4,ASCENT,700.62,133.98,-39.262279,177.867528,86.22,0.006,89.1,453.74,99.23
2026-04-25T12:00:15.500Z,15.5,ASCENT,714.15,135.3,-39.262264,177.867615,86.15,-0.004,89.1,452.39,99.22
2026-04-25T12:00:15.600Z,15.6,ASCENT,727.81,136.63,-39.262249,177.867703,86.08,-0.009,89.1,456.8,99.22
2026-04-25T12:00:15.700Z,15.7,ASCENT,741.61,137.96,-39.262233,177.867792,86.01,-0.026,89.1,455.44,99.22
2026-04-25T12:00:15.800Z,15.8,ASCENT,755.54,139.29,-39.262218,177.867882,85.94,-0.034,89.1,453.15,99.21
2026-04-25T12:00:15.900Z,15.9,ASCENT,769.6,140.63,-39.262202,177.867973,85.87,-0.037,89.1,453.31,99.2
2026-04-25T12:00:16.000Z,16.0,ASCENT,783.8,141.96,-39.262186,177.868065,85.8,0.018,89.1,455.77,99.2
2026-04-25T12:00:16.100Z,16.1,ASCENT,798.13,143.29,-39.26217,177.868159,85.73,0.032,89.1,451.11,99.19
2026-04-25T12:00:16.200Z,16.2,ASCENT,812.59,144.63,-39.262154,177.868254,85.66,0.037,89.1,452.98,99.19
2026-04-25T12:00:16.300Z,16.3,ASCENT,827.18,145.96,-39.262137,177.868349,85.59,-0.046,89.1,452.72,99.19
2026-04-25T12:00:16.400Z,16.4,ASCENT,841.91,147.3,-39.262121,177.868446,85.52,0.04,89.1,458.12,99.18
2026-04-25T12:00:16.500Z,16.5,ASCENT,856.78,148.64,-39.262104,177.868544,85.45,-0.018,89.1,453.67,99.17
2026-04-25T12:00:16.600Z,16.6,ASCENT,871.78,149.98,-39.262087,177.868644,85.38,0.031,89.1,450.09,99.17
2026-04-25T12:00:16.700Z,16.7,ASCENT,886.91,151.31,-39.262069,177.868744,85.31,-0.02,89.1,450.84,99.17
2026-04-25T12:00:16.800Z,16.8,ASCENT,902.17,152.66,-39.262052,177.868845,85.24,0.0,89.1,454.97,99.16
2026-04-25T12:00:16.900Z,16.9,ASCENT,917.57,154.0,-39.262034,177.868948,85.17,0.035,89.1,456.89,99.16
2026-04-25T12:00:17.000Z,17.0,ASCENT,933.11,155.34,-39.262016,177.869052,85.1,0.008,89.1,452.05,99.15
2026-04-25T12:00:17.100Z,17.1,ASCENT,948.77,156.68,-39.261998,177.869157,85.03,-0.024,89.1,459.35,99.14
2026-04-25T12:00:17.200Z,17.2,ASCENT,964.58,158.03,-39.26198,177.869263,84.96,-0.048,89.1,457.56,99.14
2026-04-25T12:00:17.300Z,17.3,ASCENT,980.51,159.37,-39.261961,177.86937,84.89,-0.04,89.1,453.05,99.14
2026-04-25T12:00:17.400Z,17.4,ASCENT,996.59,160.72,-39.261943,177.869479,84.82,-0.03,89.1,455.28,99.13
2026-04-25T12:00:17.500Z,17.5,ASCENT,1012.79,162.07,-39.261924,177.869588,84.75,0.003,89.1,458.81,99.12
2026-04-25T12:00:17.600Z,17.6,ASCENT,1029.13,163.42,-39.261905,177.869699,84.68,-0.042,89.1,452.68,99.12
2026-04-25T12:00:17.700Z,17.7,ASCENT,1045.61,164.77,-39.261886,177.869811,84.61,-0.003,89.1,456.01,99.11
2026-04-25T12:00:17.800Z,17.8,ASCENT,1062.22,166.12,-39.261866,177.869924,84.54,0.01,89.1,457.64,99.11
2026-04-25T12:00:17.900Z,17.9,ASCENT,1078.97,167.47,-39.261846,177.870038,84.47,0.048,89.1,459.45,99.11
2026-04-25T12:00:18.000Z,18.0,ASCENT,1095.85,168.82,-39.261827,177.870153,84.4,0.003,89.1,452.87,99.1
2026-04-25T12:00:18.100Z,18.1,ASCENT,1112.87,170.17,-39.261807,177.87027,84.33,0.01,89.1,457.13,99.09
2026-04-25T12:00:18.200Z,18.2,ASCENT,1130.02,171.53,-39.261786,177.870388,84.26,0.034,89.1,450.67,99.09
2026-04-25T12:00:18.300Z,18.3,ASCENT,1147.31,172.88,-39.261766,177.870507,84.19,0.015,89.1,457.05,99.08
2026-04-25T12:00:18.400Z,18.4,ASCENT,1164.73,174.24,-39.261745,177.870627,84.12,-0.037,89.1,457.58,99.08
2026-04-25T12:00:18.500Z,18.5,ASCENT,1182.29,175.6,-39.261724,177.870748,84.05,0.008,89.1,457.94,99.08
2026-04-25T12:00:18.600Z,18.6,ASCENT,1199.99,176.95,-39.261703,177.87087,83.98,0.012,89.1,457.3,99.07
2026-04-25T12:00:18.700Z,18.7,ASCENT,1217.82,178.31,-39.261682,177.870994,83.91,-0.013,89.1,458.66,99.06
2026-04-25T12:00:18.800Z,18.8,ASCENT,1235.79,179.67,-39.26166,177.871119,83.84,-0.017,89.1,457.23,99.06
2026-04-25T12:00:18.900Z,18.9,ASCENT,1253.89,181.04,-39.261639,177.871245,83.77,-0.035,89.1,459.01,99.06
2026-04-25T12:00:19.000Z,19.0,ASCENT,1272.13,182.4,-39.261617,177.871372,83.7,-0.048,89.1,452.36,99.05
2026-04-25T12:00:19.100Z,19.1,ASCENT,1290.51,183.76,-39.261595,177.8715,83.63,-0.017,89.1,451.41,99.05
2026-04-25T12:00:19.200Z,19.2,ASCENT,1309.02,185.12,-39.261573,177.871629,83.56,0.042,89.1,456.0,99.04
2026-04-25T12:00:19.300Z,19.3,ASCENT,1327.67,186.49,-39.26155,177.87176,83.49,-0.006,89.1,456.82,99.03
2026-04-25T12:00:19.400Z,19.4,ASCENT,1346.45,187.86,-39.261527,177.871892,83.42,-0.039,89.1,457.65,99.03
2026-04-25T12:00:19.500Z,19.5,ASCENT,1365.38,189.22,-39.261504,177.872025,83.35,0.038,89.1,457.1,99.03
2026-04-25T12:00:19.600Z,19.6,ASCENT,1384.44,190.59,-39.261481,177.872159,83.28,-0.034,89.1,451.41,99.02
2026-04-25T12:00:19.700Z,19.7,ASCENT,1403.63,191.96,-39.261458,177.872294,83.21,0.031,89.1,457.95,99.02
2026-04-25T12:00:19.800Z,19.8,ASCENT,1422.96,193.33,-39.261434,177.872431,83.14,-0.009,89.1,450.91,99.01
2026-04-25T12:00:19.900Z,19.9,ASCENT,1442.44,194.7,-39.261411,177.872569,83.07,-0.048,89.1,452.64,99.0
2026-04-25T12:00:20.000Z,20.0,ASCENT,1462.04,196.07,-39.261387,177.872708,83.0,-0.049,89.1,450.61,99.0
2026-04-25T12:00:20.100Z,20.1,ASCENT,1481.79,197.45,-39.261363,177.872848,82.93,-0.01,89.1,451.64,99.0
2026-04-25T12:00:20.200Z,20.2,ASCENT,1501.67,198.82,-39.261338,177.872989,82.86,-0.024,89.1,454.49,98.99
2026-04-25T12:00:20.300Z,20.3,ASCENT,1521.69,200.2,-39.261314,177.873132,82.79,-0.015,89.1,454.83,98.98
2026-04-25T12:00:20.400Z,20.4,ASCENT,1541.85,201.57,-39.261289,177.873275,82.72,-0.006,89.1,454.24,98.98
2026-04-25T12:00:20.500Z,20.5,ASCENT,1562.14,202.95,-39.261264,177.87342,82.65,0.043,89.1,451.52,98.97
2026-04-25T12:00:20.600Z,20.6,ASCENT,1582.57,204.33,-39.261239,177.873566,82.58,-0.013,89.1,450.32,98.97
2026-04-25T12:00:20.700Z,20.7,ASCENT,1603.14,205.7,-39.261214,177.873714,82.51,0.034,89.1,459.26,98.97
2026-04-25T12:00:20.800Z,20.8,ASCENT,1623.85,207.08,-39.261188,177.873862,82.44,-0.014,89.1,459.42,98.96
2026-04-25T12:00:20.900Z,20.9,ASCENT,1644.7,208.47,-39.261162,177.874012,82.37,-0.029,89.1,458.2,98.95
2026-04-25T12:00:21.000Z,21.0,ASCENT,1665.68,209.85,-39.261136,177.874163,82.3,0.0,89.1,450.98,98.95
2026-04-25T12:00:21.100Z,21.1,ASCENT,1686.81,211.23,-39.26111,177.874315,82.23,0.0,89.1,450.67,98.94
2026-04-25T12:00:21.200Z,21.2,ASCENT,1708.07,212.61,-39.261084,177.874468,82.16,-0.034,89.1,459.17,98.94
2026-04-25T12:00:21.300Z,21.3,ASCENT,1729.47,214.0,-39.261057,177.874623,82.09,-0.013,89.1,455.61,98.94
2026-04-25T12:00:21.400Z,21.4,ASCENT,1751.01,215.38,-39.26103,177.874778,82.02,-0.029,89.1,453.12,98.93
2026-04-25T12:00:21.500Z,21.5,ASCENT,1772.68,216.77,-39.261003,177.874935,81.95,0.016,89.1,457.32,98.92
2026-04-25T12:00:21.600Z,21.6,ASCENT,1794.5,218.16,-39.260976,177.875093,81.88,0.037,89.1,450.71,98.92
2026-04-25T12:00:21.700Z,21.7,ASCENT,1816.45,219.55,-39.260949,177.875253,81.81,0.038,89.1,450.14,98.92
2026-04-25T12:00:21.800Z,21.8,ASCENT,1838.55,220.94,-39.260921,177.875413,81.74,-0.025,89.1,452.22,98.91
2026-04-25T12:00:21.900Z,21.9,ASCENT,1860.78,222.33,-39.260893,177.875575,81.67,0.021,89.1,459.1,98.91
2026-04-25T12:00:22.000Z,22.0,ASCENT,1883.15,223.72,-39.260865,177.875738,81.6,-0.048,89.1,459.14,98.9
2026-04-25T12:00:22.100Z,22.1,ASCENT,1905.66,225.11,-39.260837,177.875902,81.53,0.048,89.1,456.46,98.89
2026-04-25T12:00:22.200Z,22.2,ASCENT,1928.31,226.51,-39.260808,177.876068,81.46,-0.049,89.1,458.78,98.89
2026-04-25T12:00:22.300Z,22.3,ASCENT,1951.1,227.9,-39.26078,177.876234,81.39,0.009,89.1,452.88,98.89
2026-04-25T12:00:22.400Z,22.4,ASCENT,1974.03,229.3,-39.260751,177.876402,81.32,-0.047,89.1,455.24,98.88
2026-04-25T12:00:22.500Z,22.5,ASCENT,1997.1,230.69,-39.260722,177.876571,81.25,0.014,89.1,451.79,98.88
2026-04-25T12:00:22.600Z,22.6,ASCENT,2020.31,232.09,-39.260692,177.876741,81.18,0.038,89.1,459.93,98.87
2026-04-25T12:00:22.700Z,22.7,ASCENT,2043.66,233.49,-39.260663,177.876913,81.11,0.035,89.1,457.41,98.86
2026-04-25T12:00:22.800Z,22.8,ASCENT,2067.15,234.89,-39.260633,177.877086,81.04,0.006,89.1,457.37,98.86
2026-04-25T12:00:22.900Z,22.9,ASCENT,2090.78,236.29,-39.260603,177.87726,80.97,-0.006,89.1,450.32,98.86
2026-04-25T12:00:23.000Z,23.0,ASCENT,2114.55,237.69,-39.260573,177.877435,80.9,-0.016,89.1,456.38,98.85
2026-04-25T12:00:23.100Z,23.1,ASCENT,2138.46,239.09,-39.260543,177.877611,80.83,-0.03,89.1,455.07,98.84
2026-04-25T12:00:23.200Z,23.2,ASCENT,2162.51,240.49,-39.260512,177.877789,80.76,0.026,89.1,457.49,98.84
2026-04-25T12:00:23.300Z,23.3,ASCENT,2186.7,241.9,-39.260481,177.877968,80.69,0.043,89.1,458.65,98.83
2026-04-25T12:00:23.400Z,23.4,ASCENT,2211.03,243.3,-39.26045,177.878148,80.62,0.033,89.1,457.13,98.83
2026-04-25T12:00:23.500Z,23.5,ASCENT,2235.5,244.71,-39.260419,177.878329,80.55,-0.016,89.1,451.56,98.83
2026-04-25T12:00:23.600Z,23.6,ASCENT,2260.11,246.12,-39.260388,177.878512,80.48,-0.047,89.1,453.89,98.82
2026-04-25T12:00:23.700Z,23.7,ASCENT,2284.86,247.53,-39.260356,177.878695,80.41,0.038,89.1,456.9,98.81
2026-04-25T12:00:23.800Z,23.8,ASCENT,2309.76,248.94,-39.260324,177.87888,80.34,0.016,89.1,458.42,98.81
2026-04-25T12:00:23.900Z,23.9,ASCENT,2334.79,250.35,-39.260292,177.879067,80.27,0.002,89.1,451.81,98.81
2026-04-25T12:00:24.000Z,24.0,ASCENT,2359.97,251.76,-39.26026,177.879254,80.2,-0.037,89.1,454.34,98.8
2026-04-25T12:00:24.100Z,24.1,ASCENT,2385.28,253.17,-39.260227,177.879443,80.13,-0.024,89.1,454.37,98.8
2026-04-25T12:00:24.200Z,24.2,ASCENT,2410.74,254.58,-39.260195,177.879633,80.06,-0.04,89.1,452.29,98.79
2026-04-25T12:00:24.300Z,24.3,ASCENT,2436.34,256.0,-39.260162,177.879824,79.99,0.037,89.1,458.34,98.78
2026-04-25T12:00:24.400Z,24.4,ASCENT,2462.08,257.41,-39.260128,177.880017,79.92,-0.016,89.1,459.56,98.78
2026-04-25T12:00:24.500Z,24.5,ASCENT,2487.96,258.83,-39.260095,177.88021,79.85,0.026,89.1,459.73,98.78
2026-04-25T12:00:24.600Z,24.6,ASCENT,2513.99,260.24,-39.260062,177.880405,79.78,-0.042,89.1,457.2,98.77
2026-04-25T12:00:24.700Z,24.7,ASCENT,2540.16,261.66,-39.260028,177.880601,79.71,-0.023,89.1,459.19,98.77
2026-04-25T12:00:24.800Z,24.8,ASCENT,2566.46,263.08,-39.259994,177.880799,79.64,0.04,89.1,454.35,98.76
2026-04-25T12:00:24.900Z,24.9,ASCENT,2592.91,264.5,-39.25996,177.880998,79.57,0.032,89.1,459.31,98.75
2026-04-25T12:00:25.000Z,25.0,ASCENT,2619.51,265.92,-39.259925,177.881197,79.5,-0.045,89.1,454.34,98.75
2026-04-25T12:00:25.100Z,25.1,ASCENT,2646.24,267.34,-39.259891,177.881399,79.43,0.025,89.1,454.05,98.75
2026-04-25T12:00:25.200Z,25.2,ASCENT,2673.12,268.77,-39.259856,177.881601,79.36,-0.038,89.1,455.74,98.74
2026-04-25T12:00:25.300Z,25.3,ASCENT,2700.14,270.19,-39.259821,177.881805,79.29,-0.048,89.1,454.05,98.73
2026-04-25T12:00:25.400Z,25.4,ASCENT,2727.3,271.62,-39.259785,177.88201,79.22,0.006,89.1,453.18,98.73
2026-04-25T12:00:25.500Z,25.5,ASCENT,2754.6,273.04,-39.25975,177.882216,79.15,-0.03,89.1,458.16,98.72
2026-04-25T12:00:25.600Z,25.6,ASCENT,2782.05,274.47,-39.259714,177.882424,79.08,0.011,89.1,457.97,98.72
2026-04-25T12:00:25.700Z,25.7,ASCENT,2809.64,275.9,-39.259678,177.882632,79.01,0.049,89.1,454.85,98.72
2026-04-25T12:00:25.800Z,25.8,ASCENT,2837.37,277.33,-39.259642,177.882842,78.94,0.014,89.1,451.77,98.71
2026-04-25T12:00:25.900Z,25.9,ASCENT,2865.25,278.76,-39.259606,177.883053,78.87,0.027,89.1,454.77,98.7
2026-04-25T12:00:26.000Z,26.0,ASCENT,2893.27,280.19,-39.259569,177.883266,78.8,0.014,89.1,450.62,98.7
2026-04-25T12:00:26.100Z,26.1,ASCENT,2921.43,281.62,-39.259532,177.88348,78.73,0.025,89.1,459.65,98.69
2026-04-25T12:00:26.200Z,26.2,ASCENT,2949.73,283.05,-39.259495,177.883695,78.66,0.017,89.1,458.11,98.69
2026-04-25T12:00:26.300Z,26.3,ASCENT,2978.18,284.49,-39.259458,177.883911,78.59,-0.048,89.1,455.55,98.69
2026-04-25T12:00:26.400Z,26.4,ASCENT,3006.77,285.92,-39.25942,177.884129,78.52,-0.001,89.1,454.05,98.68
2026-04-25T12:00:26.500Z,26.5,ASCENT,3035.51,287.36,-39.259383,177.884348,78.45,-0.035,89.1,454.21,98.67
2026-04-25T12:00:26.600Z,26.6,ASCENT,3064.39,288.79,-39.259345,177.884568,78.38,-0.044,89.1,456.62,98.67
2026-04-25T12:00:26.700Z,26.7,ASCENT,3093.41,290.23,-39.259307,177.884789,78.31,0.001,89.1,451.18,98.67
2026-04-25T12:00:26.800Z,26.8,ASCENT,3122.58,291.67,-39.259268,177.885012,78.24,-0.023,89.1,452.83,98.66
2026-04-25T12:00:26.900Z,26.9,ASCENT,3151.89,293.11,-39.25923,177.885236,78.17,-0.008,89.1,453.22,98.66
2026-04-25T12:00:27.000Z,27.0,ASCENT,3181.34,294.55,-39.259191,177.885461,78.1,-0.041,89.1,455.69,98.65
2026-04-25T12:00:27.100Z,27.1,ASCENT,3210.94,295.99,-39.259152,177.885687,78.03,0.001,89.1,458.16,98.64
2026-04-25T12:00:27.200Z,27.2,ASCENT,3240.69,297.43,-39.259113,177.885915,77.96,0.002,89.1,457.41,98.64
2026-04-25T12:00:27.300Z,27.3,ASCENT,3270.57,298.88,-39.259073,177.886144,77.89,0.048,89.1,454.81,98.64
2026-04-25T12:00:27.400Z,27.4,ASCENT,3300.61,300.32,-39.259034,177.886375,77.82,-0.015,89.1,459.97,98.63
2026-04-25T12:00:27.500Z,27.5,ASCENT,3330.78,301.77,-39.258994,177.886606,77.75,0.016,89.1,455.72,98.62
2026-04-25T12:00:27.600Z,27.6,ASCENT,3361.1,303.21,-39.258954,177.886839,77.68,-0.028,89.1,452.82,98.62
2026-04-25T12:00:27.700Z,27.7,ASCENT,3391.57,304.66,-39.258914,177.887073,77.61,0.001,89.1,453.04,98.61
2026-04-25T12:00:27.800Z,27.8,ASCENT,3422.18,306.11,-39.258873,177.887309,77.54,0.018,89.1,457.81,98.61
2026-04-25T12:00:27.900Z,27.9,ASCENT,3452.94,307.56,-39.258832,177.887545,77.47,0.002,89.1,456.06,98.61
2026-04-25T12:00:28.000Z,28.0,ASCENT,3483.84,309.01,-39.258791,177.887783,77.4,0.036,89.1,457.1,98.6
2026-04-25T12:00:28.100Z,28.1,ASCENT,3514.88,310.46,-39.25875,177.888023,77.33,0.014,89.1,451.87,98.59
2026-04-25T12:00:28.200Z,28.2,ASCENT,3546.07,311.91,-39.258709,177.888263,77.26,0.041,89.1,452.46,98.59
2026-04-25T12:00:28.300Z,28.3,ASCENT,3577.41,313.37,-39.258667,177.888505,77.19,-0.041,89.1,459.67,98.58
2026-04-25T12:00:28.400Z,28.4,ASCENT,3608.89,314.82,-39.258625,177.888748,77.12,-0.005,89.1,454.4,98.58
2026-04-25T12:00:28.500Z,28.5,ASCENT,3640.52,316.28,-39.258583,177.888993,77.05,-0.01,89.1,452.53,98.58
2026-04-25T12:00:28.600Z,28.6,ASCENT,3672.29,317.73,-39.258541,177.889239,76.98,-0.011,89.1,452.57,98.57
2026-04-25T12:00:28.700Z,28.7,ASCENT,3704.21,319.19,-39.258498,177.889486,76.91,-0.027,89.1,457.36,98.56
2026-04-25T12:00:28.800Z,28.8,ASCENT,3736.28,320.65,-39.258455,177.889734,76.84,0.023,89.1,451.97,98.56
2026-04-25T12:00:28.900Z,28.9,ASCENT,3768.49,322.11,-39.258412,177.889984,76.77,0.037,89.1,452.19,98.56
2026-04-25T12:00:29.000Z,29.0,ASCENT,3800.84,323.57,-39.258369,177.890235,76.7,-0.006,89.1,453.87,98.55
2026-04-25T12:00:29.100Z,29.1,ASCENT,3833.35,325.03,-39.258326,177.890487,76.63,0.039,89.1,456.61,98.55
2026-04-25T12:00:29.200Z,29.2,ASCENT,3866.0,326.49,-39.258282,177.890741,76.56,0.042,89.1,457.87,98.54
2026-04-25T12:00:29.300Z,29.3,ASCENT,3898.79,327.95,-39.258238,177.890996,76.49,0.001,89.1,456.61,98.53
2026-04-25T12:00:29.400Z,29.4,ASCENT,3931.73,329.42,-39.258194,177.891252,76.42,-0.045,89.1,459.79,98.53
2026-04-25T12:00:29.500Z,29.5,ASCENT,3964.82,330.88,-39.25815,177.891509,76.35,0.018,89.1,459.64,98.53
2026-04-25T12:00:29.600Z,29.6,ASCENT,3998.06,332.35,-39.258105,177.891768,76.28,0.042,89.1,458.56,98.52
2026-04-25T12:00:29.700Z,29.7,ASCENT,4031.44,333.82,-39.25806,177.892028,76.21,0.006,89.1,457.94,98.52
2026-04-25T12:00:29.800Z,29.8,ASCENT,4064.97,335.28,-39.258015,177.89229,76.14,0.001,89.1,451.85,98.51
2026-04-25T12:00:29.900Z,29.9,ASCENT,4098.64,336.75,-39.25797,177.892552,76.07,-0.037,89.1,454.05,98.5
2026-04-25T12:00:30.000Z,30.0,ASCENT,4132.46,338.22,-39.257925,177.892816,76.0,-0.039,89.1,456.62,98.5
2026-04-25T12:00:30.100Z,30.1,ASCENT,4166.43,339.69,-39.257879,177.893082,75.93,-0.012,89.1,459.92,98.5
2026-04-25T12:00:30.200Z,30.2,ASCENT,4200.55,341.17,-39.257833,177.893348,75.86,-0.039,89.1,451.19,98.49
2026-04-25T12:00:30.300Z,30.3,ASCENT,4234.81,342.64,-39.257787,177.893616,75.79,0.011,89.1,457.56,98.48
2026-04-25T12:00:30.400Z,30.4,ASCENT,4269.22,344.11,-39.257741,177.893886,75.72,0.039,89.1,453.74,98.48
2026-04-25T12:00:30.500Z,30.5,ASCENT,4303.78,345.59,-39.257694,177.894156,75.65,0.033,89.1,457.45,98.47
2026-04-25T12:00:30.600Z,30.6,ASCENT,4338.49,347.06,-39.257647,177.894428,75.58,-0.017,89.1,452.71,98.47
2026-04-25T12:00:30.700Z,30.7,ASCENT,4373.34,348.54,-39.2576,177.894701,75.51,-0.026,89.1,457.56,98.47
2026-04-25T12:00:30.800Z,30.8,ASCENT,4408.35,350.02,-39.257553,177.894976,75.44,0.011,89.1,450.66,98.46
2026-04-25T12:00:30.900Z,30.9,ASCENT,4443.5,351.5,-39.257505,177.895252,75.37,-0.006,89.1,451.71,98.45
2026-04-25T12:00:31.000Z,31.0,ASCENT,4478.79,352.98,-39.257458,177.895529,75.3,0.0,89.1,458.88,98.45
2026-04-25T12:00:31.100Z,31.1,ASCENT,4514.24,354.46,-39.25741,177.895808,75.23,0.019,89.1,455.78,98.44
2026-04-25T12:00:31.200Z,31.2,ASCENT,4549.83,355.94,-39.257362,177.896088,75.16,0.011,89.1,457.94,98.44
2026-04-25T12:00:31.300Z,31.3,ASCENT,4585.57,357.42,-39.257313,177.896369,75.09,-0.038,89.1,457.03,98.44
2026-04-25T12:00:31.400Z,31.4,ASCENT,4621.47,358.91,-39.257264,177.896651,75.02,0.008,89.1,454.98,98.43
2026-04-25T12:00:31.500Z,31.5,ASCENT,4657.5,360.39,-39.257216,177.896935,74.95,0.018,89.1,458.03,98.42
2026-04-25T12:00:31.600Z,31.6,ASCENT,4693.69,361.88,-39.257166,177.89722,74.88,-0.03,89.1,456.75,98.42
2026-04-25T12:00:31.700Z,31.7,ASCENT,4730.03,363.36,-39.257117,177.897507,74.81,-0.031,89.1,459.39,98.42
2026-04-25T12:00:31.800Z,31.8,ASCENT,4766.51,364.85,-39.257068,177.897795,74.74,0.024,89.1,455.21,98.41
2026-04-25T12:00:31.900Z,31.9,ASCENT,4803.15,366.34,-39.257018,177.898084,74.67,-0.013,89.1,451.5,98.41
2026-04-25T12:00:32.000Z,32.0,ASCENT,4839.93,367.83,-39.256968,177.898374,74.6,0.003,89.1,454.51,98.4
2026-04-25T12:00:32.100Z,32.1,ASCENT,4876.86,369.32,-39.256918,177.898666,74.53,0.015,89.1,452.31,98.39
2026-04-25T12:00:32.200Z,32.2,ASCENT,4913.94,370.81,-39.256867,177.89896,74.46,0.029,89.1,452.42,98.39
2026-04-25T12:00:32.300Z,32.3,ASCENT,4951.17,372.3,-39.256816,177.899254,74.39,-0.031,89.1,450.67,98.39
2026-04-25T12:00:32.400Z,32.4,ASCENT,4988.55,373.8,-39.256765,177.89955,74.32,-0.021,89.1,455.16,98.38
2026-04-25T12:00:32.500Z,32.5,ASCENT,5026.08,375.29,-39.256714,177.899847,74.25,0.016,89.1,451.61,98.38
2026-04-25T12:00:32.600Z,32.6,ASCENT,5063.76,376.79,-39.256663,177.900146,74.18,-0.046,89.1,455.8,98.37
2026-04-25T12:00:32.700Z,32.7,ASCENT,5101.59,378.28,-39.256611,177.900446,74.11,0.012,89.1,450.25,98.36
2026-04-25T12:00:32.800Z,32.8,ASCENT,5139.57,379.78,-39.256559,177.900747,74.04,0.011,89.1,450.77,98.36
2026-04-25T12:00:32.900Z,32.9,ASCENT,5177.69,381.28,-39.256507,177.90105,73.97,-0.03,89.1,455.29,98.36
2026-04-25T12:00:33.000Z,33.0,ASCENT,5215.97,382.78,-39.256455,177.901354,73.9,-0.043,89.1,451.71,98.35
2026-04-25T12:00:33.100Z,33.1,ASCENT,5254.4,384.28,-39.256402,177.901659,73.83,0.04,89.1,453.34,98.34
2026-04-25T12:00:33.200Z,33.2,ASCENT,5292.98,385.78,-39.256349,177.901966,73.76,0.017,89.1,454.31,98.34
2026-04-25T12:00:33.300Z,33.3,ASCENT,5331.71,387.28,-39.256296,177.902274,73.69,0.003,89.1,459.87,98.33
2026-04-25T12:00:33.400Z,33.4,ASCENT,5370.59,388.79,-39.256243,177.902583,73.62,0.026,89.1,459.88,98.33
2026-04-25T12:00:33.500Z,33.5,ASCENT,5409.61,390.29,-39.25619,177.902894,73.55,-0.001,89.1,450.39,98.33
2026-04-25T12:00:33.600Z,33.6,ASCENT,5448.79,391.8,-39.256136,177.903206,73.48,0.018,89.1,450.58,98.32
2026-04-25T12:00:33.700Z,33.7,ASCENT,5488.12,393.3,-39.256082,177.903519,73.41,0.041,89.1,458.24,98.31
2026-04-25T12:00:33.800Z,33.8,ASCENT,5527.6,394.81,-39.256028,177.903834,73.34,0.022,89.1,451.82,98.31
2026-04-25T12:00:33.900Z,33.9,ASCENT,5567.24,396.32,-39.255973,177.90415,73.27,0.01,89.1,450.71,98.31
2026-04-25T12:00:34.000Z,34.0,ASCENT,5607.02,397.83,-39.255919,177.904468,73.2,-0.006,89.1,455.92,98.3
2026-04-25T12:00:34.100Z,34.1,ASCENT,5646.95,399.34,-39.255864,177.904787,73.13,-0.01,89.1,453.24,98.3
2026-04-25T12:00:34.200Z,34.2,ASCENT,5687.04,400.85,-39.255809,177.905107,73.06,-0.01,89.1,458.41,98.29
2026-04-25T12:00:34.300Z,34.3,ASCENT,5727.27,402.36,-39.255753,177.905428,72.99,0.032,89.1,451.46,98.28
2026-04-25T12:00:34.400Z,34.4,ASCENT,5767.66,403.87,-39.255698,177.905751,72.92,0.033,89.1,456.84,98.28
2026-04-25T12:00:34.500Z,34.5,ASCENT,5808.2,405.39,-39.255642,177.906076,72.85,-0.036,89.1,455.34,98.28
2026-04-25T12:00:34.600Z,34.6,ASCENT,5848.89,406.9,-39.255586,177.906401,72.78,-0.002,89.1,458.28,98.27
2026-04-25T12:00:34.700Z,34.7,ASCENT,5889.73,408.42,-39.255529,177.906729,72.71,-0.009,89.1,459.71,98.27
2026-04-25T12:00:34.800Z,34.8,ASCENT,5930.72,409.93,-39.255473,177.907057,72.64,0.028,89.1,455.05,98.26
2026-04-25T12:00:34.900Z,34.9,ASCENT,5971.87,411.45,-39.255416,177.907387,72.57,0.045,89.1,456.21,98.25
2026-04-25T12:00:35.000Z,35.0,ASCENT,6013.17,412.97,-39.255359,177.907718,72.5,0.042,89.1,457.61,98.25
2026-04-25T12:00:35.100Z,35.1,ASCENT,6054.62,414.49,-39.255302,177.908051,72.43,0.026,89.1,452.02,98.25
2026-04-25T12:00:35.200Z,35.2,ASCENT,6096.22,416.01,-39.255244,177.908385,72.36,-0.034,89.1,454.26,98.24
2026-04-25T12:00:35.300Z,35.3,ASCENT,6137.97,417.53,-39.255187,177.90872,72.29,-0.018,89.1,458.73,98.23
2026-04-25T12:00:35.400Z,35.4,ASCENT,6179.88,419.06,-39.255129,177.909057,72.22,-0.038,89.1,455.15,98.23
2026-04-25T12:00:35.500Z,35.5,ASCENT,6221.94,420.58,-39.25507,177.909395,72.15,0.022,89.1,450.26,98.22
2026-04-25T12:00:35.600Z,35.6,ASCENT,6264.15,422.11,-39.255012,177.909734,72.08,-0.035,89.1,458.63,98.22
2026-04-25T12:00:35.700Z,35.7,ASCENT,6306.51,423.63,-39.254953,177.910075,72.01,-0.003,89.1,456.94,98.22
2026-04-25T12:00:35.800Z,35.8,ASCENT,6349.03,425.16,-39.254894,177.910417,71.94,-0.008,89.1,455.35,98.21
2026-04-25T12:00:35.900Z,35.9,ASCENT,6391.69,426.69,-39.254835,177.910761,71.87,0.003,89.1,458.66,98.2
2026-04-25T12:00:36.000Z,36.0,ASCENT,6434.52,428.22,-39.254776,177.911106,71.8,-0.019,89.1,456.21,98.2
2026-04-25T12:00:36.100Z,36.1,ASCENT,6477.49,429.75,-39.254716,177.911452,71.73,-0.013,89.1,456.55,98.19
2026-04-25T12:00:36.200Z,36.2,ASCENT,6520.62,431.28,-39.254656,177.9118,71.66,0.007,89.1,458.0,98.19
2026-04-25T12:00:36.300Z,36.3,ASCENT,6563.9,432.81,-39.254596,177.912149,71.59,0.022,89.1,452.46,98.19
2026-04-25T12:00:36.400Z,36.4,ASCENT,6607.33,434.34,-39.254536,177.9125,71.52,0.01,89.1,452.06,98.18
2026-04-25T12:00:36.500Z,36.5,ASCENT,6650.92,435.87,-39.254475,177.912852,71.45,-0.018,89.1,458.67,98.17
2026-04-25T12:00:36.600Z,36.6,ASCENT,6694.66,437.41,-39.254414,177.913205,71.38,-0.023,89.1,455.01,98.17
2026-04-25T12:00:36.700Z,36.7,ASCENT,6738.56,438.94,-39.254353,177.91356,71.31,-0.027,89.1,459.24,98.17
2026-04-25T12:00:36.800Z,36.8,ASCENT,6782.6,440.48,-39.254292,177.913916,71.24,0.027,89.1,452.71,98.16
2026-04-25T12:00:36.900Z,36.9,ASCENT,6826.81,442.02,-39.25423,177.914273,71.17,-0.01,89.1,454.25,98.16
2026-04-25T12:00:37.000Z,37.0,ASCENT,6871.16,443.56,-39.254169,177.914632,71.1,-0.042,89.1,458.93,98.15
2026-04-25T12:00:37.100Z,37.1,ASCENT,6915.67,445.1,-39.254107,177.914993,71.03,0.026,89.1,451.41,98.14
2026-04-25T12:00:37.200Z,37.2,ASCENT,6960.33,446.64,-39.254044,177.915354,70.96,0.047,89.1,456.42,98.14
2026-04-25T12:00:37.300Z,37.3,ASCENT,7005.15,448.18,-39.253982,177.915718,70.89,-0.015,89.1,451.49,98.14
2026-04-25T12:00:37.400Z,37.4,ASCENT,7050.12,449.72,-39.253919,177.916082,70.82,0.048,89.1,454.31,98.13
2026-04-25T12:00:37.500Z,37.5,ASCENT,7095.25,451.27,-39.253856,177.916448,70.75,-0.026,89.1,451.29,98.12
2026-04-25T12:00:37.600Z,37.6,ASCENT,7140.53,452.81,-39.253793,177.916815,70.68,0.002,89.1,453.97,98.12
2026-04-25T12:00:37.700Z,37.7,ASCENT,7185.97,454.36,-39.253729,177.917184,70.61,-0.021,89.1,452.22,98.11
2026-04-25T12:00:37.800Z,37.8,ASCENT,7231.56,455.9,-39.253666,177.917554,70.54,0.029,89.1,458.44,98.11
2026-04-25T12:00:37.900Z,37.9,ASCENT,7277.3,457.45,-39.253602,177.917926,70.47,0.044,89.1,451.39,98.11
2026-04-25T12:00:38.000Z,38.0,ASCENT,7323.2,459.0,-39.253537,177.918299,70.4,-0.02,89.1,458.07,98.1
2026-04-25T12:00:38.100Z,38.1,ASCENT,7369.26,460.55,-39.253473,177.918673,70.33,0.015,89.1,455.56,98.09
2026-04-25T12:00:38.200Z,38.2,ASCENT,7415.47,462.1,-39.253408,177.919049,70.26,-0.029,89.1,451.37,98.09
2026-04-25T12:00:38.300Z,38.3,ASCENT,7461.83,463.65,-39.253343,177.919426,70.19,-0.044,89.1,453.01,98.08
2026-04-25T12:00:38.400Z,38.4,ASCENT,7508.35,465.2,-39.253278,177.919805,70.12,0.005,89.1,454.19,98.08
2026-04-25T12:00:38.500Z,38.5,ASCENT,7555.03,466.75,-39.253213,177.920185,70.05,0.033,89.1,459.34,98.08
2026-04-25T12:00:38.600Z,38.6,ASCENT,7601.86,468.31,-39.253147,177.920566,69.98,-0.013,89.1,451.58,98.07
2026-04-25T12:00:38.700Z,38.7,ASCENT,7648.85,469.86,-39.253081,177.920949,69.91,-0.035,89.1,455.4,98.06
2026-04-25T12:00:38.800Z,38.8,ASCENT,7695.99,471.42,-39.253015,177.921334,69.84,0.027,89.1,453.42,98.06
2026-04-25T12:00:38.900Z,38.9,ASCENT,7743.28,472.98,-39.252948,177.921719,69.77,0.043,89.1,451.62,98.06
2026-04-25T12:00:39.000Z,39.0,ASCENT,7790.74,474.54,-39.252882,177.922106,69.7,0.045,89.1,455.89,98.05
2026-04-25T12:00:39.100Z,39.1,ASCENT,7838.35,476.09,-39.252815,177.922495,69.63,0.042,89.1,456.13,98.05
2026-04-25T12:00:39.200Z,39.2,ASCENT,7886.11,477.65,-39.252748,177.922885,69.56,-0.012,89.1,457.23,98.04
2026-04-25T12:00:39.300Z,39.3,ASCENT,7934.03,479.22,-39.25268,177.923276,69.49,-0.04,89.1,455.85,98.03
2026-04-25T12:00:39.400Z,39.4,ASCENT,7982.11,480.78,-39.252613,177.923669,69.42,-0.037,89.1,450.38,98.03
2026-04-25T12:00:39.500Z,39.5,ASCENT,8030.35,482.34,-39.252545,177.924064,69.35,0.049,89.1,454.28,98.03
2026-04-25T12:00:39.600Z,39.6,ASCENT,8078.74,483.91,-39.252477,177.924459,69.28,0.03,89.1,450.85,98.02
2026-04-25T12:00:39.700Z,39.7,ASCENT,8127.28,485.47,-39.252408,177.924856,69.21,0.047,89.1,452.31,98.02
2026-04-25T12:00:39.800Z,39.8,ASCENT,8175.99,487.04,-39.25234,177.925255,69.14,0.036,89.1,450.58,98.01
2026-04-25T12:00:39.900Z,39.9,ASCENT,8224.85,488.6,-39.252271,177.925655,69.07,-0.013,89.1,455.4,98.0
2026-04-25T12:00:40.000Z,40.0,ASCENT,8273.87,490.17,-39.252202,177.926056,69.0,-0.041,89.1,450.04,98.0
2026-04-25T12:00:40.100Z,40.1,ASCENT,8323.04,491.74,-39.252132,177.926459,68.93,0.049,89.1,450.79,98.0
2026-04-25T12:00:40.200Z,40.2,ASCENT,8372.37,493.31,-39.252063,177.926864,68.86,0.045,89.1,453.42,97.99
2026-04-25T12:00:40.300Z,40.3,ASCENT,8421.86,494.88,-39.251993,177.927269,68.79,-0.024,89.1,451.33,97.98
2026-04-25T12:00:40.400Z,40.4,ASCENT,8471.5,496.45,-39.251923,177.927677,68.72,-0.029,89.1,454.63,97.98
2026-04-25T12:00:40.500Z,40.5,ASCENT,8521.31,498.03,-39.251852,177.928085,68.65,-0.038,89.1,450.93,97.97
2026-04-25T12:00:40.600Z,40.6,ASCENT,8571.27,499.6,-39.251782,177.928495,68.58,-0.012,89.1,453.51,97.97
2026-04-25T12:00:40.700Z,40.7,ASCENT,8621.38,501.17,-39.251711,177.928907,68.51,0.002,89.1,456.77,97.97
2026-04-25T12:00:40.800Z,40.8,ASCENT,8671.66,502.75,-39.25164,177.92932,68.44,-0.034,89.1,453.92,97.96
2026-04-25T12:00:40.900Z,40.9,ASCENT,8722.09,504.33,-39.251568,177.929734,68.37,-0.046,89.1,452.89,97.95
2026-04-25T12:00:41.000Z,41.0,ASCENT,8772.68,505.91,-39.251497,177.93015,68.3,0.011,89.1,451.95,97.95
2026-04-25T12:00:41.100Z,41.1,ASCENT,8823.43,507.48,-39.251425,177.930567,68.23,0.017,89.1,452.83,97.94
2026-04-25T12:00:41.200Z,41.2,ASCENT,8874.34,509.06,-39.251353,177.930986,68.16,0.017,89.1,459.68,97.94
2026-04-25T12:00:41.300Z,41.3,ASCENT,8925.4,510.64,-39.251281,177.931406,68.09,0.001,89.1,450.92,97.94
2026-04-25T12:00:41.400Z,41.4,ASCENT,8976.62,512.23,-39.251208,177.931828,68.02,0.038,89.1,457.48,97.93
2026-04-25T12:00:41.500Z,41.5,ASCENT,9028.01,513.81,-39.251135,177.932251,67.95,-0.04,89.1,454.58,97.92
2026-04-25T12:00:41.600Z,41.6,ASCENT,9079.54,515.39,-39.251062,177.932676,67.88,0.03,89.1,458.27,97.92
2026-04-25T12:00:41.700Z,41.7,ASCENT,9131.24,516.98,-39.250989,177.933102,67.81,0.023,89.1,454.76,97.92
2026-04-25T12:00:41.800Z,41.8,ASCENT,9183.1,518.56,-39.250915,177.933529,67.74,0.026,89.1,455.31,97.91
2026-04-25T12:00:41.900Z,41.9,ASCENT,9235.11,520.15,-39.250841,177.933958,67.67,-0.012,89.1,450.73,97.91
2026-04-25T12:00:42.000Z,42.0,ASCENT,9287.29,521.74,-39.250767,177.934389,67.6,0.033,89.1,455.84,97.9
2026-04-25T12:00:42.100Z,42.1,ASCENT,9339.62,523.33,-39.250693,177.93482,67.53,0.032,89.1,455.8,97.89
2026-04-25T12:00:42.200Z,42.2,ASCENT,9392.11,524.92,-39.250618,177.935254,67.46,-0.011,89.1,453.27,97.89
2026-04-25T12:00:42.300Z,42.3,ASCENT,9444.76,526.51,-39.250543,177.935689,67.39,-0.012,89.1,455.44,97.89
2026-04-25T12:00:42.400Z,42.4,ASCENT,9497.57,528.1,-39.250468,177.936125,67.32,-0.036,89.1,454.89,97.88
2026-04-25T12:00:42.500Z,42.5,ASCENT,9550.54,529.69,-39.250393,177.936562,67.25,-0.031,89.1,456.93,97.88
2026-04-25T12:00:42.600Z,42.6,ASCENT,9603.67,531.28,-39.250317,177.937002,67.18,-0.046,89.1,459.53,97.87
2026-04-25T12:00:42.700Z,42.7,ASCENT,9656.96,532.88,-39.250241,177.937442,67.11,0.022,89.1,451.58,97.86
2026-04-25T12:00:42.800Z,42.8,ASCENT,9710.4,534.47,-39.250165,177.937884,67.04,-0.017,89.1,450.25,97.86
2026-04-25T12:00:42.900Z,42.9,ASCENT,9764.01,536.07,-39.250089,177.938328,66.97,0.018,89.1,452.95,97.86
2026-04-25T12:00:43.000Z,43.0,ASCENT,9817.78,537.67,-39.250012,177.938773,66.9,0.017,89.1,450.99,97.85
2026-04-25T12:00:43.100Z,43.1,ASCENT,9871.7,539.27,-39.249935,177.93922,66.83,0.003,89.1,457.03,97.84
2026-04-25T12:00:43.200Z,43.2,ASCENT,9925.79,540.86,-39.249858,177.939668,66.76,0.015,89.1,459.9,97.84
2026-04-25T12:00:43.300Z,43.3,ASCENT,9980.04,542.47,-39.249781,177.940117,66.69,0.005,89.1,456.5,97.83
2026-04-25T12:00:43.400Z,43.4,ASCENT,10034.44,544.07,-39.249703,177.940568,66.62,0.037,89.1,457.22,97.83
2026-04-25T12:00:43.500Z,43.5,ASCENT,10089.01,545.67,-39.249625,177.941021,66.55,0.033,89.1,452.28,97.83
2026-04-25T12:00:43.600Z,43.6,ASCENT,10143.74,547.27,-39.249547,177.941474,66.48,-0.036,89.1,451.65,97.82
2026-04-25T12:00:43.700Z,43.7,ASCENT,10198.63,548.88,-39.249469,177.94193,66.41,-0.028,89.1,452.39,97.81
2026-04-25T12:00:43.800Z,43.8,ASCENT,10253.67,550.48,-39.24939,177.942387,66.34,-0.046,89.1,455.28,97.81
2026-04-25T12:00:43.900Z,43.9,ASCENT,10308.88,552.09,-39.249311,177.942845,66.27,-0.007,89.1,451.22,97.81
2026-04-25T12:00:44.000Z,44.0,ASCENT,10364.25,553.7,-39.249232,177.943305,66.2,-0.007,89.1,458.56,97.8
2026-04-25T12:00:44.100Z,44.1,ASCENT,10419.78,555.3,-39.249153,177.943766,66.13,0.034,89.1,451.48,97.8
2026-04-25T12:00:44.200Z,44.2,ASCENT,10475.47,556.91,-39.249073,177.944229,66.06,-0.01,89.1,452.85,97.79
2026-04-25T12:00:44.300Z,44.3,ASCENT,10531.33,558.52,-39.248993,177.944693,65.99,0.031,89.1,454.98,97.78
2026-04-25T12:00:44.400Z,44.4,ASCENT,10587.34,560.13,-39.248913,177.945159,65.92,-0.025,89.1,458.23,97.78
2026-04-25T12:00:44.500Z,44.5,ASCENT,10643.51,561.75,-39.248832,177.945627,65.85,-0.038,89.1,452.6,97.78
2026-04-25T12:00:44.600Z,44.6,ASCENT,10699.85,563.36,-39.248752,177.946095,65.78,-0.005,89.1,459.97,97.77
2026-04-25T12:00:44.700Z,44.7,ASCENT,10756.35,564.97,-39.248671,177.946566,65.71,-0.039,89.1,458.91,97.77
2026-04-25T12:00:44.800Z,44.8,ASCENT,10813.01,566.59,-39.248589,177.947037,65.64,-0.015,89.1,451.31,97.76
2026-04-25T12:00:44.900Z,44.9,ASCENT,10869.83,568.2,-39.248508,177.947511,65.57,0.035,89.1,457.42,97.75
2026-04-25T12:00:45.000Z,45.0,ASCENT,10926.81,569.82,-39.248426,177.947985,65.5,-0.012,89.1,450.36,97.75
2026-04-25T12:00:45.100Z,45.1,ASCENT,10983.95,571.44,-39.248344,177.948462,65.43,0.005,89.1,455.58,97.75
2026-04-25T12:00:45.200Z,45.2,ASCENT,11041.26,573.06,-39.248262,177.948939,65.36,-0.049,89.1,455.22,97.74
2026-04-25T12:00:45.300Z,45.3,ASCENT,11098.73,574.68,-39.248179,177.949419,65.29,0.028,89.1,453.58,97.73
2026-04-25T12:00:45.400Z,45.4,ASCENT,11156.36,576.3,-39.248097,177.949899,65.22,0.001,89.1,450.81,97.73
2026-04-25T12:00:45.500Z,45.5,ASCENT,11214.15,577.92,-39.248014,177.950382,65.15,-0.023,89.1,454.83,97.72
2026-04-25T12:00:45.600Z,45.6,ASCENT,11272.1,579.54,-39.24793,177.950865,65.08,0.026,89.1,458.6,97.72
2026-04-25T12:00:45.700Z,45.7,ASCENT,11330.22,581.17,-39.247847,177.951351,65.01,-0.013,89.1,451.36,97.72
2026-04-25T12:00:45.800Z,45.8,ASCENT,11388.5,582.79,-39.247763,177.951838,64.94,0.012,89.1,451.84,97.71
2026-04-25T12:00:45.900Z,45.9,ASCENT,11446.94,584.42,-39.247679,177.952326,64.87,0.003,89.1,455.78,97.7
2026-04-25T12:00:46.000Z,46.0,ASCENT,11505.54,586.04,-39.247595,177.952816,64.8,0.0,89.1,450.43,97.7
2026-04-25T12:00:46.100Z,46.1,ASCENT,11564.31,587.67,-39.24751,177.953307,64.73,-0.0,89.1,459.7,97.69
2026-04-25T12:00:46.200Z,46.2,ASCENT,11623.24,589.3,-39.247425,177.9538,64.66,0.007,89.1,450.25,97.69
2026-04-25T12:00:46.300Z,46.3,ASCENT,11682.34,590.93,-39.24734,177.954294,64.59,0.023,89.1,457.92,97.69
2026-04-25T12:00:46.400Z,46.4,ASCENT,11741.59,592.56,-39.247255,177.95479,64.52,0.042,89.1,450.56,97.68
2026-04-25T12:00:46.500Z,46.5,ASCENT,11801.01,594.19,-39.247169,177.955287,64.45,-0.045,89.1,451.04,97.67
2026-04-25T12:00:46.600Z,46.6,ASCENT,11860.59,595.83,-39.247083,177.955786,64.38,0.043,89.1,454.64,97.67
2026-04-25T12:00:46.700Z,46.7,ASCENT,11920.34,597.46,-39.246997,177.956287,64.31,0.044,89.1,453.46,97.67
2026-04-25T12:00:46.800Z,46.8,ASCENT,11980.25,599.09,-39.246911,177.956788,64.24,-0.022,89.1,455.71,97.66
2026-04-25T12:00:46.900Z,46.9,ASCENT,12040.32,600.73,-39.246824,177.957292,64.17,-0.009,89.1,456.75,97.66
2026-04-25T12:00:47.000Z,47.0,ASCENT,12100.56,602.37,-39.246737,177.957797,64.1,0.01,89.1,456.77,97.65
2026-04-25T12:00:47.100Z,47.1,ASCENT,12160.96,604.0,-39.24665,177.958303,64.03,0.04,89.1,459.32,97.64
2026-04-25T12:00:47.200Z,47.2,ASCENT,12221.52,605.64,-39.246562,177.958811,63.96,0.012,89.1,457.1,97.64
2026-04-25T12:00:47.300Z,47.3,ASCENT,12282.25,607.28,-39.246474,177.959321,63.89,-0.025,89.1,454.86,97.64
2026-04-25T12:00:47.400Z,47.4,ASCENT,12343.14,608.92,-39.246387,177.959832,63.82,0.009,89.1,456.51,97.63
2026-04-25T12:00:47.500Z,47.5,ASCENT,12404.2,610.56,-39.246298,177.960344,63.75,0.004,89.1,450.69,97.62
2026-04-25T12:00:47.600Z,47.6,ASCENT,12465.42,612.21,-39.24621,177.960859,63.68,0.017,89.1,453.13,97.62
2026-04-25T12:00:47.700Z,47.7,ASCENT,12526.81,613.85,-39.246121,177.961374,63.61,-0.024,89.1,453.09,97.61
2026-04-25T12:00:47.800Z,47.8,ASCENT,12588.36,615.49,-39.246032,177.961891,63.54,0.011,89.1,450.07,97.61
2026-04-25T12:00:47.900Z,47.9,ASCENT,12650.07,617.14,-39.245943,177.96241,63.47,-0.024,89.1,453.87,97.61
2026-04-25T12:00:48.000Z,48.0,ASCENT,12711.95,618.79,-39.245853,177.96293,63.4,0.012,89.1,459.85,97.6
2026-04-25T12:00:48.100Z,48.1,ASCENT,12773.99,620.43,-39.245763,177.963452,63.33,0.028,89.1,455.9,97.59
2026-04-25T12:00:48.200Z,48.2,ASCENT,12836.2,622.08,-39.245673,177.963975,63.26,-0.038,89.1,456.62,97.59
2026-04-25T12:00:48.300Z,48.3,ASCENT,12898.57,623.73,-39.245583,177.9645,63.19,0.017,89.1,450.28,97.58
2026-04-25T12:00:48.400Z,48.4,ASCENT,12961.11,625.38,-39.245492,177.965027,63.12,0.034,89.1,454.93,97.58
2026-04-25T12:00:48.500Z,48.5,ASCENT,13023.81,627.03,-39.245401,177.965554,63.05,0.013,89.1,457.96,97.58
2026-04-25T12:00:48.600Z,48.6,ASCENT,13086.68,628.69,-39.24531,177.966084,62.98,-0.049,89.1,458.79,97.57
2026-04-25T12:00:48.700Z,48.7,ASCENT,13149.72,630.34,-39.245219,177.966615,62.91,-0.02,89.1,451.21,97.56
2026-04-25T12:00:48.800Z,48.8,ASCENT,13212.92,631.99,-39.245127,177.967147,62.84,0.038,89.1,456.42,97.56
2026-04-25T12:00:48.900Z,48.9,ASCENT,13276.28,633.65,-39.245035,177.967682,62.77,-0.016,89.1,459.04,97.56
2026-04-25T12:00:49.000Z,49.0,ASCENT,13339.81,635.3,-39.244943,177.968217,62.7,0.003,89.1,458.53,97.55
2026-04-25T12:00:49.100Z,49.1,ASCENT,13403.51,636.96,-39.24485,177.968754,62.63,-0.021,89.1,457.78,97.55
2026-04-25T12:00:49.200Z,49.2,ASCENT,13467.37,638.62,-39.244758,177.969293,62.56,0.041,89.1,457.34,97.54
2026-04-25T12:00:49.300Z,49.3,ASCENT,13531.4,640.28,-39.244665,177.969833,62.49,0.001,89.1,454.92,97.53
2026-04-25T12:00:49.400Z,49.4,ASCENT,13595.59,641.94,-39.244571,177.970375,62.42,-0.024,89.1,456.62,97.53
2026-04-25T12:00:49.500Z,49.5,ASCENT,13659.95,643.6,-39.244478,177.970919,62.35,0.01,89.1,459.56,97.53
2026-04-25T12:00:49.600Z,49.6,ASCENT,13724.48,645.26,-39.244384,177.971463,62.28,-0.03,89.1,455.47,97.52
2026-04-25T12:00:49.700Z,49.7,ASCENT,13789.17,646.93,-39.24429,177.97201,62.21,0.001,89.1,450.07,97.52
2026-04-25T12:00:49.800Z,49.8,ASCENT,13854.03,648.59,-39.244195,177.972558,62.14,0.001,89.1,453.85,97.51
2026-04-25T12:00:49.900Z,49.9,ASCENT,13919.06,650.25,-39.244101,177.973108,62.07,-0.005,89.1,455.59,97.5
2026-04-25T12:00:50.000Z,50.0,ASCENT,13984.25,651.92,-39.244006,177.973659,62.0,0.023,89.1,459.5,97.5
2026-04-25T12:00:50.100Z,50.1,ASCENT,14049.61,653.59,-39.243911,177.974211,61.93,-0.016,89.1,456.45,97.5
2026-04-25T12:00:50.200Z,50.2,ASCENT,14115.13,655.26,-39.243815,177.974766,61.86,-0.031,89.1,456.13,97.49
2026-04-25T12:00:50.300Z,50.3,ASCENT,14180.82,656.92,-39.24372,177.975322,61.79,-0.023,89.1,454.79,97.48
2026-04-25T12:00:50.400Z,50.4,ASCENT,14246.68,658.59,-39.243624,177.975879,61.72,-0.002,89.1,454.38,97.48
2026-04-25T12:00:50.500Z,50.5,ASCENT,14312.71,660.27,-39.243527,177.976438,61.65,0.017,89.1,457.4,97.47
2026-04-25T12:00:50.600Z,50.6,ASCENT,14378.9,661.94,-39.243431,177.976999,61.58,0.043,89.1,454.83,97.47
2026-04-25T12:00:50.700Z,50.7,ASCENT,14445.26,663.61,-39.243334,177.977561,61.51,-0.011,89.1,454.06,97.47
2026-04-25T12:00:50.800Z,50.8,ASCENT,14511.79,665.28,-39.243237,177.978124,61.44,-0.017,89.1,458.44,97.46
2026-04-25T12:00:50.900Z,50.9,ASCENT,14578.49,666.96,-39.24314,177.97869,61.37,0.002,89.1,457.2,97.45
2026-04-25T12:00:51.000Z,51.0,ASCENT,14645.35,668.63,-39.243042,177.979256,61.3,-0.042,89.1,459.64,97.45
2026-04-25T12:00:51.100Z,51.1,ASCENT,14712.38,670.31,-39.242944,177.979825,61.23,0.03,89.1,455.1,97.44
2026-04-25T12:00:51.200Z,51.2,ASCENT,14779.58,671.99,-39.242846,177.980395,61.16,0.002,89.1,455.27,97.44
2026-04-25T12:00:51.300Z,51.3,ASCENT,14846.95,673.67,-39.242748,177.980966,61.09,-0.039,89.1,450.46,97.44
2026-04-25T12:00:51.400Z,51.4,ASCENT,14914.48,675.35,-39.242649,177.981539,61.02,0.046,89.1,451.99,97.43
2026-04-25T12:00:51.500Z,51.5,ASCENT,14982.19,677.03,-39.24255,177.982114,60.95,0.002,89.1,453.62,97.42
2026-04-25T12:00:51.600Z,51.6,ASCENT,15050.06,678.71,-39.242451,177.98269,60.88,-0.002,89.1,451.93,97.42
2026-04-25T12:00:51.700Z,51.7,ASCENT,15118.1,680.39,-39.242351,177.983268,60.81,0.018,89.1,455.41,97.42
2026-04-25T12:00:51.800Z,51.8,ASCENT,15186.3,682.08,-39.242252,177.983847,60.74,-0.024,89.1,455.79,97.41
2026-04-25T12:00:51.900Z,51.9,ASCENT,15254.68,683.76,-39.242152,177.984428,60.67,0.032,89.1,456.27,97.41
2026-04-25T12:00:52.000Z,52.0,ASCENT,15323.23,685.45,-39.242051,177.985011,60.6,0.036,89.1,451.26,97.4
2026-04-25T12:00:52.100Z,52.1,ASCENT,15391.94,687.13,-39.241951,177.985595,60.53,-0.006,89.1,453.87,97.39
2026-04-25T12:00:52.200Z,52.2,ASCENT,15460.82,688.82,-39.24185,177.986181,60.46,0.019,89.1,451.16,97.39
2026-04-25T12:00:52.300Z,52.3,ASCENT,15529.87,690.51,-39.241749,177.986768,60.39,0.043,89.1,452.26,97.39
2026-04-25T12:00:52.400Z,52.4,ASCENT,15599.09,692.2,-39.241647,177.987357,60.32,-0.049,89.1,456.2,97.38
2026-04-25T12:00:52.500Z,52.5,ASCENT,15668.48,693.89,-39.241546,177.987948,60.25,0.016,89.1,451.03,97.38
2026-04-25T12:00:52.600Z,52.6,ASCENT,15738.04,695.58,-39.241444,177.98854,60.18,-0.03,89.1,455.75,97.37
2026-04-25T12:00:52.700Z,52.7,ASCENT,15807.77,697.27,-39.241342,177.989133,60.11,0.049,89.1,452.72,97.36
2026-04-25T12:00:52.800Z,52.8,ASCENT,15877.66,698.97,-39.241239,177.989729,60.04,-0.048,89.1,459.03,97.36
2026-04-25T12:00:52.900Z,52.9,ASCENT,15947.73,700.66,-39.241136,177.990326,59.97,-0.032,89.1,453.12,97.36
2026-04-25T12:00:53.000Z,53.0,ASCENT,16017.96,702.36,-39.241033,177.990924,59.9,0.05,89.1,452.02,97.35
2026-04-25T12:00:53.100Z,53.1,ASCENT,16088.37,704.05,-39.24093,177.991524,59.83,0.021,89.1,454.59,97.34
2026-04-25T12:00:53.200Z,53.2,ASCENT,16158.94,705.75,-39.240826,177.992126,59.76,-0.011,89.1,451.74,97.34
2026-04-25T12:00:53.300Z,53.3,ASCENT,16229.69,707.45,-39.240723,177.992729,59.69,0.031,89.1,450.84,97.33
2026-04-25T12:00:53.400Z,53.4,ASCENT,16300.6,709.15,-39.240618,177.993334,59.62,-0.013,89.1,450.75,97.33
2026-04-25T12:00:53.500Z,53.5,ASCENT,16371.69,710.85,-39.240514,177.99394,59.55,0.048,89.1,454.29,97.33
2026-04-25T12:00:53.600Z,53.6,ASCENT,16442.94,712.55,-39.240409,177.994549,59.48,-0.005,89.1,458.64,97.32
2026-04-25T12:00:53.700Z,53.7,ASCENT,16514.37,714.25,-39.240304,177.995158,59.41,-0.015,89.1,456.18,97.31
2026-04-25T12:00:53.800Z,53.8,ASCENT,16585.96,715.95,-39.240199,177.995769,59.34,0.015,89.1,456.47,97.31
2026-04-25T12:00:53.900Z,53.9,ASCENT,16657.73,717.66,-39.240094,177.996382,59.27,0.048,89.1,453.19,97.31
2026-04-25T12:00:54.000Z,54.0,ASCENT,16729.67,719.36,-39.239988,177.996997,59.2,0.029,89.1,456.16,97.3
2026-04-25T12:00:54.100Z,54.1,ASCENT,16801.77,721.07,-39.239882,177.997613,59.13,-0.042,89.1,459.14,97.3
2026-04-25T12:00:54.200Z,54.2,ASCENT,16874.05,722.78,-39.239775,177.998231,59.06,-0.032,89.1,456.33,97.29
2026-04-25T12:00:54.300Z,54.3,ASCENT,16946.5,724.49,-39.239669,177.99885,58.99,0.048,89.1,457.06,97.28
2026-04-25T12:00:54.400Z,54.4,ASCENT,17019.12,726.19,-39.239562,177.999471,58.92,-0.028,89.1,453.47,97.28
2026-04-25T12:00:54.500Z,54.5,ASCENT,17091.91,727.9,-39.239455,178.000093,58.85,0.015,89.1,459.81,97.28
2026-04-25T12:00:54.600Z,54.6,ASCENT,17164.87,729.62,-39.239347,178.000718,58.78,0.018,89.1,453.32,97.27
2026-04-25T12:00:54.700Z,54.7,ASCENT,17238.0,731.33,-39.239239,178.001343,58.71,0.041,89.1,452.02,97.27
2026-04-25T12:00:54.800Z,54.8,ASCENT,17311.31,733.04,-39.239131,178.001971,58.64,-0.026,89.1,455.6,97.26
2026-04-25T12:00:54.900Z,54.9,ASCENT,17384.78,734.75,-39.239023,178.0026,58.57,0.046,89.1,454.78,97.25
2026-04-25T12:00:55.000Z,55.0,ASCENT,17458.43,736.47,-39.238914,178.00323,58.5,0.033,89.1,453.24,97.25
2026-04-25T12:00:55.100Z,55.1,ASCENT,17532.25,738.19,-39.238806,178.003863,58.43,0.009,89.1,453.05,97.25
2026-04-25T12:00:55.200Z,55.2,ASCENT,17606.24,739.9,-39.238696,178.004497,58.36,-0.013,89.1,456.66,97.24
2026-04-25T12:00:55.300Z,55.3,ASCENT,17680.4,741.62,-39.238587,178.005132,58.29,-0.043,89.1,452.71,97.23
2026-04-25T12:00:55.400Z,55.4,ASCENT,17754.74,743.34,-39.238477,178.005769,58.22,-0.008,89.1,454.64,97.23
2026-04-25T12:00:55.500Z,55.5,ASCENT,17829.24,745.06,-39.238367,178.006408,58.15,0.039,89.1,455.28,97.22
2026-04-25T12:00:55.600Z,55.6,ASCENT,17903.92,746.78,-39.238257,178.007048,58.08,-0.016,89.1,453.21,97.22
2026-04-25T12:00:55.700Z,55.7,ASCENT,17978.77,748.5,-39.238147,178.00769,58.01,-0.043,89.1,455.48,97.22
2026-04-25T12:00:55.800Z,55.8,ASCENT,18053.79,750.23,-39.238036,178.008334,57.94,-0.04,89.1,455.95,97.21
2026-04-25T12:00:55.900Z,55.9,ASCENT,18128.99,751.95,-39.237925,178.008979,57.87,-0.015,89.1,458.9,97.2
2026-04-25T12:00:56.000Z,56.0,ASCENT,18204.35,753.67,-39.237813,178.009626,57.8,-0.046,89.1,451.92,97.2
2026-04-25T12:00:56.100Z,56.1,ASCENT,18279.89,755.4,-39.237702,178.010275,57.73,-0.009,89.1,457.71,97.19
2026-04-25T12:00:56.200Z,56.2,ASCENT,18355.61,757.13,-39.23759,178.010925,57.66,0.026,89.1,458.17,97.19
2026-04-25T12:00:56.300Z,56.3,ASCENT,18431.49,758.85,-39.237478,178.011577,57.59,0.037,89.1,458.92,97.19
2026-04-25T12:00:56.400Z,56.4,ASCENT,18507.55,760.58,-39.237365,178.01223,57.52,-0.012,89.1,457.0,97.18
2026-04-25T12:00:56.500Z,56.5,ASCENT,18583.78,762.31,-39.237252,178.012885,57.45,-0.049,89.1,451.25,97.17
2026-04-25T12:00:56.600Z,56.6,ASCENT,18660.19,764.04,-39.237139,178.013542,57.38,0.016,89.1,459.31,97.17
2026-04-25T12:00:56.700Z,56.7,ASCENT,18736.76,765.77,-39.237026,178.0142,57.31,-0.014,89.1,458.45,97.17
2026-04-25T12:00:56.800Z,56.8,ASCENT,18813.51,767.51,-39.236912,178.01486,57.24,-0.016,89.1,454.47,97.16
2026-04-25T12:00:56.900Z,56.9,ASCENT,18890.44,769.24,-39.236798,178.015522,57.17,-0.031,89.1,451.13,97.16
2026-04-25T12:00:57.000Z,57.0,ASCENT,18967.54,770.98,-39.236684,178.016185,57.1,0.019,89.1,453.41,97.15
2026-04-25T12:00:57.100Z,57.1,ASCENT,19044.81,772.71,-39.23657,178.01685,57.03,-0.036,89.1,453.06,97.14
2026-04-25T12:00:57.200Z,57.2,ASCENT,19122.25,774.45,-39.236455,178.017517,56.96,0.018,89.1,450.81,97.14
2026-04-25T12:00:57.300Z,57.3,ASCENT,19199.87,776.19,-39.23634,178.018185,56.89,-0.021,89.1,450.84,97.14
2026-04-25T12:00:57.400Z,57.4,ASCENT,19277.66,777.92,-39.236224,178.018855,56.82,-0.033,89.1,452.49,97.13
2026-04-25T12:00:57.500Z,57.5,ASCENT,19355.63,779.66,-39.236109,178.019526,56.75,0.006,89.1,453.35,97.12
2026-04-25T12:00:57.600Z,57.6,ASCENT,19433.77,781.4,-39.235993,178.020199,56.68,0.047,89.1,453.89,97.12
2026-04-25T12:00:57.700Z,57.7,ASCENT,19512.08,783.15,-39.235877,178.020874,56.61,-0.028,89.1,456.81,97.11
2026-04-25T12:00:57.800Z,57.8,ASCENT,19590.57,784.89,-39.23576,178.021551,56.54,-0.038,89.1,452.13,97.11
2026-04-25T12:00:57.900Z,57.9,ASCENT,19669.24,786.63,-39.235644,178.022229,56.47,-0.006,89.1,458.47,97.11
2026-04-25T12:00:58.000Z,58.0,ASCENT,19748.07,788.38,-39.235526,178.022909,56.4,0.046,89.1,459.09,97.1
2026-04-25T12:00:58.100Z,58.1,ASCENT,19827.09,790.12,-39.235409,178.02359,56.33,-0.027,89.1,452.88,97.09
2026-04-25T12:00:58.200Z,58.2,ASCENT,19906.27,791.87,-39.235292,178.024273,56.26,0.016,89.1,459.29,97.09
2026-04-25T12:00:58.300Z,58.3,ASCENT,19985.63,793.61,-39.235174,178.024958,56.19,0.005,89.1,454.2,97.08
2026-04-25T12:00:58.400Z,58.4,ASCENT,20065.17,795.36,-39.235055,178.025644,56.12,0.002,89.1,459.96,97.08
2026-04-25T12:00:58.500Z,58.5,ASCENT,20144.88,797.11,-39.234937,178.026332,56.05,0.004,89.1,452.83,97.08
2026-04-25T12:00:58.600Z,58.6,ASCENT,20224.77,798.86,-39.234818,178.027022,55.98,-0.02,89.1,451.85,97.07
